{"type": "FeatureCollection", "features": [{"type": "Feature", "geometry": {"type": "Point", "coordinates": [2.18091, 41.39004]}, "properties": {"nom": "Barcelona - Av. Lluís Companys", "codi": "AN", "pluja": 0.0}}, {"type": "Feature", "geometry": {"type": "Point", "coordinates": [0.95172, 41.6566]}, "properties": {"nom": "Castellnou de Seana", "codi": "C6", "pluja": 0.1}}, {"type": "Feature", "geometry": {"type": "Point", "coordinates": [1.16234, 41.66695]}, "properties": {"nom": "Tàrrega", "codi": "C7", "pluja": 0.0}}, {"type": "Feature", "geometry": {"type": "Point", "coordinates": [1.29609, 41.67555]}, "properties": {"nom": "Cervera", "codi": "C8", "pluja": 0.0}}, {"type": "Feature", "geometry": {"type": "Point", "coordinates": [0.39988, 40.71825]}, "properties": {"nom": "Mas de Barberans", "codi": "C9", "pluja": 0.2}}, {"type": "Feature", "geometry": {"type": "Point", "coordinates": [1.5851, 41.95378]}, "properties": {"nom": "Clariana de Cardener", "codi": "CA", "pluja": 0.0}}, {"type": "Feature", "geometry": {"type": "Point", "coordinates": [2.19914, 42.15085]}, "properties": {"nom": "les Llosses", "codi": "CB", "pluja": 0.0}}, {"type": "Feature", "geometry": {"type": "Point", "coordinates": [2.20862, 42.07398]}, "properties": {"nom": "Orís", "codi": "CC", "pluja": 0.1}}, {"type": "Feature", "geometry": {"type": "Point", "coordinates": [1.43277, 42.37083]}, "properties": {"nom": "la Seu d'Urgell - Bellestar", "codi": "CD", "pluja": 0.0}}, {"type": "Feature", "geometry": {"type": "Point", "coordinates": [1.80813, 41.53109]}, "properties": {"nom": "els Hostalets de Pierola", "codi": "CE", "pluja": 0.0}}, {"type": "Feature", "geometry": {"type": "Point", "coordinates": [2.84282, 41.72346]}, "properties": {"nom": "Lloret de Mar", "codi": "CF", "pluja": 0.0}}, {"type": "Feature", "geometry": {"type": "Point", "coordinates": [2.41456, 42.37717]}, "properties": {"nom": "Molló - Fabert", "codi": "CG", "pluja": 2.5}}, {"type": "Feature", "geometry": {"type": "Point", "coordinates": [0.82357, 41.15076]}, "properties": {"nom": "Falset - Escola", "codi": "CH", "pluja": 0.0}}, {"type": "Feature", "geometry": {"type": "Point", "coordinates": [2.36429, 42.25839]}, "properties": {"nom": "Sant Pau de Segúries", "codi": "CI", "pluja": 3.5}}, {"type": "Feature", "geometry": {"type": "Point", "coordinates": [1.33132, 42.21624]}, "properties": {"nom": "Organyà", "codi": "CJ", "pluja": 0.0}}, {"type": "Feature", "geometry": {"type": "Point", "coordinates": [2.66451, 41.86472]}, "properties": {"nom": "Santa Coloma de Farners", "codi": "CK", "pluja": 0.0}}, {"type": "Feature", "geometry": {"type": "Point", "coordinates": [1.76796, 41.67399]}, "properties": {"nom": "Sant Salvador de Guardiola", "codi": "CL", "pluja": 0.3}}, {"type": "Feature", "geometry": {"type": "Point", "coordinates": [2.24546, 41.54911]}, "properties": {"nom": "Montmeló", "codi": "CM", "pluja": 0.0}}, {"type": "Feature", "geometry": {"type": "Point", "coordinates": [1.87672, 42.22903]}, "properties": {"nom": "Guardiola de Berguedà - Escola", "codi": "CN", "pluja": 0.0}}, {"type": "Feature", "geometry": {"type": "Point", "coordinates": [0.52711, 41.52603]}, "properties": {"nom": "Torres de Segre - Depuradora", "codi": "CO", "pluja": 0.0}}, {"type": "Feature", "geometry": {"type": "Point", "coordinates": [1.03893, 42.13924]}, "properties": {"nom": "Sant Romà d'Abella", "codi": "CP", "pluja": 0.0}}, {"type": "Feature", "geometry": {"type": "Point", "coordinates": [1.02569, 41.99546]}, "properties": {"nom": "Vilanova de Meià", "codi": "CQ", "pluja": 0.0}}, {"type": "Feature", "geometry": {"type": "Point", "coordinates": [1.9624, 42.08032]}, "properties": {"nom": "la Quar", "codi": "CR", "pluja": 0.0}}, {"type": "Feature", "geometry": {"type": "Point", "coordinates": [2.3881, 41.84502]}, "properties": {"nom": "Viladrau - centre", "codi": "CS", "pluja": 0.0}}, {"type": "Feature", "geometry": {"type": "Point", "coordinates": [0.74362, 42.39811]}, "properties": {"nom": "el Pont de Suert", "codi": "CT", "pluja": 0.0}}, {"type": "Feature", "geometry": {"type": "Point", "coordinates": [0.79397, 42.69856]}, "properties": {"nom": "Vielha", "codi": "CU", "pluja": 0.0}}, {"type": "Feature", "geometry": {"type": "Point", "coordinates": [0.96434, 42.23939]}, "properties": {"nom": "la Pobla de Segur - Bombers", "codi": "CV", "pluja": 0.0}}, {"type": "Feature", "geometry": {"type": "Point", "coordinates": [1.09894, 41.39241]}, "properties": {"nom": "l'Espluga de Francolí", "codi": "CW", "pluja": 0.1}}, {"type": "Feature", "geometry": {"type": "Point", "coordinates": [2.23857, 41.93582]}, "properties": {"nom": "Vic - 1", "codi": "CX", "pluja": 0.0}}, {"type": "Feature", "geometry": {"type": "Point", "coordinates": [2.17873, 41.87813]}, "properties": {"nom": "Muntanyola", "codi": "CY", "pluja": 0.0}}, {"type": "Feature", "geometry": {"type": "Point", "coordinates": [0.87868, 41.3191]}, "properties": {"nom": "Ulldemolins - Zona Esportiva", "codi": "CZ", "pluja": 0.0}}, {"type": "Feature", "geometry": {"type": "Point", "coordinates": [0.75383, 41.28521]}, "properties": {"nom": "Margalef", "codi": "D1", "pluja": 0.1}}, {"type": "Feature", "geometry": {"type": "Point", "coordinates": [1.915, 41.59252]}, "properties": {"nom": "Vacarisses", "codi": "D2", "pluja": 0.0}}, {"type": "Feature", "geometry": {"type": "Point", "coordinates": [1.93564, 41.38197]}, "properties": {"nom": "Vallirana", "codi": "D3", "pluja": 0.0}}, {"type": "Feature", "geometry": {"type": "Point", "coordinates": [3.18147, 42.27068]}, "properties": {"nom": "Roses", "codi": "D4", "pluja": 0.0}}, {"type": "Feature", "geometry": {"type": "Point", "coordinates": [2.12379, 41.41864]}, "properties": {"nom": "Barcelona - Observatori Fabra", "codi": "D5", "pluja": 0.1}}, {"type": "Feature", "geometry": {"type": "Point", "coordinates": [3.16622, 42.43515]}, "properties": {"nom": "Portbou - coll dels Belitres", "codi": "D6", "pluja": 0.1}}, {"type": "Feature", "geometry": {"type": "Point", "coordinates": [0.59376, 41.18499]}, "properties": {"nom": "Vinebre", "codi": "D7", "pluja": 0.1}}, {"type": "Feature", "geometry": {"type": "Point", "coordinates": [0.30565, 40.95134]}, "properties": {"nom": "Horta de Sant Joan", "codi": "D8", "pluja": 0.1}}, {"type": "Feature", "geometry": {"type": "Point", "coordinates": [1.52121, 41.21553]}, "properties": {"nom": "el Vendrell", "codi": "D9", "pluja": 0.6}}, {"type": "Feature", "geometry": {"type": "Point", "coordinates": [1.3622, 41.30839]}, "properties": {"nom": "Vila-rodona - Escola", "codi": "DA", "pluja": 0.0}}, {"type": "Feature", "geometry": {"type": "Point", "coordinates": [0.71581, 40.87287]}, "properties": {"nom": "el Perelló", "codi": "DB", "pluja": 0.1}}, {"type": "Feature", "geometry": {"type": "Point", "coordinates": [2.48263, 42.19144]}, "properties": {"nom": "Olot - pla de Baix", "codi": "DC", "pluja": 0.0}}, {"type": "Feature", "geometry": {"type": "Point", "coordinates": [2.38674, 41.51175]}, "properties": {"nom": "Vilassar de Mar", "codi": "DD", "pluja": 0.0}}, {"type": "Feature", "geometry": {"type": "Point", "coordinates": [0.99772, 41.15404]}, "properties": {"nom": "Botarell", "codi": "DE", "pluja": 0.0}}, {"type": "Feature", "geometry": {"type": "Point", "coordinates": [3.03543, 41.97751]}, "properties": {"nom": "la Bisbal d'Empordà", "codi": "DF", "pluja": 0.0}}, {"type": "Feature", "geometry": {"type": "Point", "coordinates": [2.15517, 42.39848]}, "properties": {"nom": "Núria (1.971 m)", "codi": "DG", "pluja": 2.9}}, {"type": "Feature", "geometry": {"type": "Point", "coordinates": [2.25213, 41.47638]}, "properties": {"nom": "Badalona - Mas Ram", "codi": "DH", "pluja": 0.0}}, {"type": "Feature", "geometry": {"type": "Point", "coordinates": [1.62386, 41.43292]}, "properties": {"nom": "Font-rubí", "codi": "DI", "pluja": 0.0}}, {"type": "Feature", "geometry": {"type": "Point", "coordinates": [2.78969, 42.11653]}, "properties": {"nom": "Banyoles", "codi": "DJ", "pluja": 0.2}}, {"type": "Feature", "geometry": {"type": "Point", "coordinates": [1.41846, 41.14677]}, "properties": {"nom": "Torredembarra", "codi": "DK", "pluja": 2.9}}, {"type": "Feature", "geometry": {"type": "Point", "coordinates": [0.83449, 40.70719]}, "properties": {"nom": "Illa de Buda", "codi": "DL", "pluja": 0.6}}, {"type": "Feature", "geometry": {"type": "Point", "coordinates": [2.80696, 41.96012]}, "properties": {"nom": "Girona - Bombers", "codi": "DM", "pluja": 0.0}}, {"type": "Feature", "geometry": {"type": "Point", "coordinates": [2.63108, 41.96095]}, "properties": {"nom": "Anglès", "codi": "DN", "pluja": 0.0}}, {"type": "Feature", "geometry": {"type": "Point", "coordinates": [3.03241, 41.80857]}, "properties": {"nom": "Castell d'Aro", "codi": "DO", "pluja": 0.0}}, {"type": "Feature", "geometry": {"type": "Point", "coordinates": [1.8664, 42.38605]}, "properties": {"nom": "Das - Aeròdrom", "codi": "DP", "pluja": 0.1}}, {"type": "Feature", "geometry": {"type": "Point", "coordinates": [1.36259, 41.30728]}, "properties": {"nom": "Vila-rodona", "codi": "DQ", "pluja": 5.2}}, {"type": "Feature", "geometry": {"type": "Point", "coordinates": [1.65306, 41.58642]}, "properties": {"nom": "Òdena", "codi": "H1", "pluja": 1.5}}, {"type": "Feature", "geometry": {"type": "Point", "coordinates": [2.83423, 42.34215]}, "properties": {"nom": "Pantà de Darnius - Boadella", "codi": "J5", "pluja": 0.4}}, {"type": "Feature", "geometry": {"type": "Point", "coordinates": [2.41404, 41.96867]}, "properties": {"nom": "Pantà de Sau", "codi": "KE", "pluja": 2.1}}, {"type": "Feature", "geometry": {"type": "Point", "coordinates": [2.69436, 41.73894]}, "properties": {"nom": "Fogars de la Selva", "codi": "KP", "pluja": 0.1}}, {"type": "Feature", "geometry": {"type": "Point", "coordinates": [2.36114, 41.61865]}, "properties": {"nom": "la Roca del Vallès - ETAP Cardedeu", "codi": "KX", "pluja": 0.1}}, {"type": "Feature", "geometry": {"type": "Point", "coordinates": [2.2427, 42.22189]}, "properties": {"nom": "Sant Joan de les Abadesses", "codi": "M6", "pluja": 0.9}}, {"type": "Feature", "geometry": {"type": "Point", "coordinates": [1.69584, 41.92047]}, "properties": {"nom": "Cardona", "codi": "MQ", "pluja": 0.1}}, {"type": "Feature", "geometry": {"type": "Point", "coordinates": [0.9106, 41.25079]}, "properties": {"nom": "Pantà de Siurana", "codi": "MR", "pluja": 0.0}}, {"type": "Feature", "geometry": {"type": "Point", "coordinates": [1.97609, 42.25945]}, "properties": {"nom": "Castellar de n'Hug - el Clot del Moro", "codi": "MS", "pluja": 0.2}}, {"type": "Feature", "geometry": {"type": "Point", "coordinates": [1.67295, 42.13598]}, "properties": {"nom": "Guixers - Valls", "codi": "MV", "pluja": 0.0}}, {"type": "Feature", "geometry": {"type": "Point", "coordinates": [1.65239, 42.00707]}, "properties": {"nom": "Navès", "codi": "MW", "pluja": 0.0}}, {"type": "Feature", "geometry": {"type": "Point", "coordinates": [1.87276, 41.70637]}, "properties": {"nom": "el Pont de Vilomara", "codi": "R1", "pluja": 0.0}}, {"type": "Feature", "geometry": {"type": "Point", "coordinates": [2.95481, 42.30648]}, "properties": {"nom": "Cabanes - Mas de la Rajoleria", "codi": "U1", "pluja": 0.0}}, {"type": "Feature", "geometry": {"type": "Point", "coordinates": [3.0968, 42.17716]}, "properties": {"nom": "Sant Pere Pescador", "codi": "U2", "pluja": 0.1}}, {"type": "Feature", "geometry": {"type": "Point", "coordinates": [1.63032, 41.37491]}, "properties": {"nom": "Sant Martí Sarroca", "codi": "U3", "pluja": 0.0}}, {"type": "Feature", "geometry": {"type": "Point", "coordinates": [1.84699, 41.83094]}, "properties": {"nom": "Castellnou de Bages", "codi": "U4", "pluja": 0.3}}, {"type": "Feature", "geometry": {"type": "Point", "coordinates": [0.99611, 41.31349]}, "properties": {"nom": "Prades - los Hortals", "codi": "U5", "pluja": 0.0}}, {"type": "Feature", "geometry": {"type": "Point", "coordinates": [1.06661, 41.08017]}, "properties": {"nom": "Vinyols i els Arcs - Cambrils", "codi": "U6", "pluja": 0.3}}, {"type": "Feature", "geometry": {"type": "Point", "coordinates": [0.50525, 40.85936]}, "properties": {"nom": "Aldover", "codi": "U7", "pluja": 0.1}}, {"type": "Feature", "geometry": {"type": "Point", "coordinates": [0.74264, 40.78653]}, "properties": {"nom": "Punta del Fangar", "codi": "U8", "pluja": 0.0}}, {"type": "Feature", "geometry": {"type": "Point", "coordinates": [0.61635, 40.76947]}, "properties": {"nom": "l'Aldea", "codi": "U9", "pluja": 0.3}}, {"type": "Feature", "geometry": {"type": "Point", "coordinates": [0.76943, 40.9091]}, "properties": {"nom": "l'Ametlla de Mar", "codi": "UA", "pluja": 0.1}}, {"type": "Feature", "geometry": {"type": "Point", "coordinates": [3.06195, 42.05398]}, "properties": {"nom": "la Tallada d'Empordà", "codi": "UB", "pluja": 0.0}}, {"type": "Feature", "geometry": {"type": "Point", "coordinates": [2.99705, 41.97726]}, "properties": {"nom": "Monells", "codi": "UC", "pluja": 0.0}}, {"type": "Feature", "geometry": {"type": "Point", "coordinates": [3.06227, 42.02895]}, "properties": {"nom": "Serra de Daró", "codi": "UD", "pluja": 0.0}}, {"type": "Feature", "geometry": {"type": "Point", "coordinates": [3.15719, 42.02306]}, "properties": {"nom": "Torroella de Montgrí", "codi": "UE", "pluja": 0.1}}, {"type": "Feature", "geometry": {"type": "Point", "coordinates": [1.90775, 41.28832]}, "properties": {"nom": "PN del Garraf - el Rascler", "codi": "UF", "pluja": 0.0}}, {"type": "Feature", "geometry": {"type": "Point", "coordinates": [1.48769, 41.34171]}, "properties": {"nom": "el Montmell", "codi": "UH", "pluja": 4.8}}, {"type": "Feature", "geometry": {"type": "Point", "coordinates": [1.76218, 42.26477]}, "properties": {"nom": "Gisclareny", "codi": "UI", "pluja": 0.0}}, {"type": "Feature", "geometry": {"type": "Point", "coordinates": [1.3683, 41.52879]}, "properties": {"nom": "Santa Coloma de Queralt", "codi": "UJ", "pluja": 0.2}}, {"type": "Feature", "geometry": {"type": "Point", "coordinates": [1.80479, 41.27861]}, "properties": {"nom": "Sant Pere de Ribes - PN del Garraf", "codi": "UK", "pluja": 0.2}}, {"type": "Feature", "geometry": {"type": "Point", "coordinates": [0.75303, 41.52911]}, "properties": {"nom": "Castelldans", "codi": "UL", "pluja": 0.0}}, {"type": "Feature", "geometry": {"type": "Point", "coordinates": [0.66789, 41.35991]}, "properties": {"nom": "la Granadella", "codi": "UM", "pluja": 0.0}}, {"type": "Feature", "geometry": {"type": "Point", "coordinates": [2.92694, 41.87449]}, "properties": {"nom": "Cassà de la Selva", "codi": "UN", "pluja": 0.3}}, {"type": "Feature", "geometry": {"type": "Point", "coordinates": [2.82069, 41.91461]}, "properties": {"nom": "Fornells de la Selva", "codi": "UO", "pluja": 0.1}}, {"type": "Feature", "geometry": {"type": "Point", "coordinates": [2.37702, 41.51773]}, "properties": {"nom": "Cabrils", "codi": "UP", "pluja": 0.2}}, {"type": "Feature", "geometry": {"type": "Point", "coordinates": [2.44532, 41.61991]}, "properties": {"nom": "Dosrius - PN Montnegre Corredor", "codi": "UQ", "pluja": 0.2}}, {"type": "Feature", "geometry": {"type": "Point", "coordinates": [2.75209, 41.64908]}, "properties": {"nom": "Malgrat de Mar - Cooperativa", "codi": "UR", "pluja": 0.0}}, {"type": "Feature", "geometry": {"type": "Point", "coordinates": [0.52329, 40.55786]}, "properties": {"nom": "les Cases d'Alcanar", "codi": "US", "pluja": 0.2}}, {"type": "Feature", "geometry": {"type": "Point", "coordinates": [0.53252, 40.55219]}, "properties": {"nom": "Port de les Cases d'Alcanar", "codi": "UT", "pluja": 0.0}}, {"type": "Feature", "geometry": {"type": "Point", "coordinates": [0.6321, 40.70776]}, "properties": {"nom": "Amposta", "codi": "UU", "pluja": 0.1}}, {"type": "Feature", "geometry": {"type": "Point", "coordinates": [0.41633, 40.71727]}, "properties": {"nom": "Mas de Barberans - Mitanplana", "codi": "UV", "pluja": 0.0}}, {"type": "Feature", "geometry": {"type": "Point", "coordinates": [0.65922, 40.62725]}, "properties": {"nom": "els Alfacs", "codi": "UW", "pluja": 0.2}}, {"type": "Feature", "geometry": {"type": "Point", "coordinates": [0.37112, 40.62652]}, "properties": {"nom": "Ulldecona - els Valentins", "codi": "UX", "pluja": 0.4}}, {"type": "Feature", "geometry": {"type": "Point", "coordinates": [0.76103, 41.87912]}, "properties": {"nom": "Os de Balaguer - el Monestir d'Avellanes", "codi": "UY", "pluja": 0.0}}, {"type": "Feature", "geometry": {"type": "Point", "coordinates": [0.82939, 41.78487]}, "properties": {"nom": "Vallfogona de Balaguer", "codi": "V1", "pluja": 0.1}}, {"type": "Feature", "geometry": {"type": "Point", "coordinates": [2.23271, 41.95224]}, "properties": {"nom": "Gurb", "codi": "V3", "pluja": 0.0}}, {"type": "Feature", "geometry": {"type": "Point", "coordinates": [2.21483, 42.11477]}, "properties": {"nom": "Montesquiu", "codi": "V4", "pluja": 0.2}}, {"type": "Feature", "geometry": {"type": "Point", "coordinates": [2.11993, 42.03947]}, "properties": {"nom": "Perafita", "codi": "V5", "pluja": 0.1}}, {"type": "Feature", "geometry": {"type": "Point", "coordinates": [2.42636, 41.84256]}, "properties": {"nom": "Viladrau - Aigües de Viladrau", "codi": "V6", "pluja": 0.0}}, {"type": "Feature", "geometry": {"type": "Point", "coordinates": [2.39837, 41.97554]}, "properties": {"nom": "Embassament de Sau", "codi": "V7", "pluja": 0.0}}, {"type": "Feature", "geometry": {"type": "Point", "coordinates": [0.87741, 41.67279]}, "properties": {"nom": "el Poal", "codi": "V8", "pluja": 0.0}}, {"type": "Feature", "geometry": {"type": "Point", "coordinates": [0.87608, 41.61333]}, "properties": {"nom": "Miralcamp", "codi": "V9", "pluja": 0.0}}, {"type": "Feature", "geometry": {"type": "Point", "coordinates": [0.51101, 41.1964]}, "properties": {"nom": "Ascó", "codi": "VA", "pluja": 0.0}}, {"type": "Feature", "geometry": {"type": "Point", "coordinates": [0.63517, 41.06289]}, "properties": {"nom": "Benissanet", "codi": "VB", "pluja": 0.3}}, {"type": "Feature", "geometry": {"type": "Point", "coordinates": [0.43266, 41.24415]}, "properties": {"nom": "Pantà de Riba-roja", "codi": "VC", "pluja": 0.0}}, {"type": "Feature", "geometry": {"type": "Point", "coordinates": [1.20381, 41.68939]}, "properties": {"nom": "el Canós", "codi": "VD", "pluja": 0.0}}, {"type": "Feature", "geometry": {"type": "Point", "coordinates": [0.46058, 41.48692]}, "properties": {"nom": "Aitona", "codi": "VE", "pluja": 0.0}}, {"type": "Feature", "geometry": {"type": "Point", "coordinates": [0.54999, 41.56482]}, "properties": {"nom": "Alcarràs - Torrent d'Alcarràs", "codi": "VF", "pluja": 0.0}}, {"type": "Feature", "geometry": {"type": "Point", "coordinates": [0.3932, 41.65825]}, "properties": {"nom": "Gimenells", "codi": "VH", "pluja": 0.1}}, {"type": "Feature", "geometry": {"type": "Point", "coordinates": [0.59622, 41.62918]}, "properties": {"nom": "Lleida", "codi": "VI", "pluja": 0.0}}, {"type": "Feature", "geometry": {"type": "Point", "coordinates": [0.6478, 41.59957]}, "properties": {"nom": "Lleida - pla de Lleida", "codi": "VJ", "pluja": 0.0}}, {"type": "Feature", "geometry": {"type": "Point", "coordinates": [0.4487, 41.68328]}, "properties": {"nom": "Raimat", "codi": "VK", "pluja": 0.2}}, {"type": "Feature", "geometry": {"type": "Point", "coordinates": [0.40562, 41.46014]}, "properties": {"nom": "Seròs - la Creu", "codi": "VL", "pluja": 0.0}}, {"type": "Feature", "geometry": {"type": "Point", "coordinates": [0.62839, 41.7145]}, "properties": {"nom": "Vilanova de Segrià", "codi": "VM", "pluja": 0.2}}, {"type": "Feature", "geometry": {"type": "Point", "coordinates": [2.74262, 41.88244]}, "properties": {"nom": "Vilobí d'Onyar", "codi": "VN", "pluja": 0.0}}, {"type": "Feature", "geometry": {"type": "Point", "coordinates": [1.42792, 42.08745]}, "properties": {"nom": "Lladurs", "codi": "VO", "pluja": 0.0}}, {"type": "Feature", "geometry": {"type": "Point", "coordinates": [1.53853, 41.80483]}, "properties": {"nom": "Pinós", "codi": "VP", "pluja": 0.0}}, {"type": "Feature", "geometry": {"type": "Point", "coordinates": [1.16774, 41.1713]}, "properties": {"nom": "Constantí", "codi": "VQ", "pluja": 0.3}}, {"type": "Feature", "geometry": {"type": "Point", "coordinates": [1.04401, 41.68994]}, "properties": {"nom": "Tornabous - Montargull", "codi": "VR", "pluja": 0.0}}, {"type": "Feature", "geometry": {"type": "Point", "coordinates": [0.77889, 42.63835]}, "properties": {"nom": "Lac Redon (2.247 m)", "codi": "VS", "pluja": 2.2}}, {"type": "Feature", "geometry": {"type": "Point", "coordinates": [2.12745, 41.48401]}, "properties": {"nom": "Cerdanyola del Vallès", "codi": "VT", "pluja": 0.0}}, {"type": "Feature", "geometry": {"type": "Point", "coordinates": [1.91718, 41.63286]}, "properties": {"nom": "Rellinars", "codi": "VU", "pluja": 0.2}}, {"type": "Feature", "geometry": {"type": "Point", "coordinates": [2.02647, 41.68129]}, "properties": {"nom": "Sant Llorenç Savall", "codi": "VV", "pluja": 0.2}}, {"type": "Feature", "geometry": {"type": "Point", "coordinates": [2.17099, 41.61235]}, "properties": {"nom": "Caldes de Montbui - Torre Marimon", "codi": "VW", "pluja": 0.0}}, {"type": "Feature", "geometry": {"type": "Point", "coordinates": [2.30291, 41.74761]}, "properties": {"nom": "Tagamanent - PN del Montseny", "codi": "VX", "pluja": 0.0}}, {"type": "Feature", "geometry": {"type": "Point", "coordinates": [1.29863, 41.25095]}, "properties": {"nom": "Nulles", "codi": "VY", "pluja": 6.6}}, {"type": "Feature", "geometry": {"type": "Point", "coordinates": [3.00736, 42.38443]}, "properties": {"nom": "Espolla", "codi": "VZ", "pluja": 0.2}}, {"type": "Feature", "geometry": {"type": "Point", "coordinates": [3.09021, 42.24726]}, "properties": {"nom": "Castelló d'Empúries", "codi": "W1", "pluja": 0.1}}, {"type": "Feature", "geometry": {"type": "Point", "coordinates": [3.05783, 42.18259]}, "properties": {"nom": "Torroella de Fluvià", "codi": "W2", "pluja": 0.0}}, {"type": "Feature", "geometry": {"type": "Point", "coordinates": [3.06494, 42.15006]}, "properties": {"nom": "Ventalló", "codi": "W3", "pluja": 0.0}}, {"type": "Feature", "geometry": {"type": "Point", "coordinates": [1.72857, 41.36619]}, "properties": {"nom": "Vilafranca del Penedès - la Granada", "codi": "W4", "pluja": 0.3}}, {"type": "Feature", "geometry": {"type": "Point", "coordinates": [1.31489, 42.07683]}, "properties": {"nom": "Oliana", "codi": "W5", "pluja": 0.1}}, {"type": "Feature", "geometry": {"type": "Point", "coordinates": [1.0187, 41.13738]}, "properties": {"nom": "Riudoms", "codi": "W6", "pluja": 0.0}}, {"type": "Feature", "geometry": {"type": "Point", "coordinates": [1.15998, 41.44237]}, "properties": {"nom": "Blancafort", "codi": "W8", "pluja": 0.0}}, {"type": "Feature", "geometry": {"type": "Point", "coordinates": [2.45451, 42.14557]}, "properties": {"nom": "la Vall d'en Bas", "codi": "W9", "pluja": 1.8}}, {"type": "Feature", "geometry": {"type": "Point", "coordinates": [1.1541, 41.87694]}, "properties": {"nom": "Oliola", "codi": "WA", "pluja": 0.1}}, {"type": "Feature", "geometry": {"type": "Point", "coordinates": [0.67022, 41.76036]}, "properties": {"nom": "Albesa", "codi": "WB", "pluja": 0.4}}, {"type": "Feature", "geometry": {"type": "Point", "coordinates": [0.92446, 41.63642]}, "properties": {"nom": "Golmés", "codi": "WC", "pluja": 0.1}}, {"type": "Feature", "geometry": {"type": "Point", "coordinates": [0.31884, 41.08671]}, "properties": {"nom": "Batea - Granja de Pere el Sec", "codi": "WD", "pluja": 0.0}}, {"type": "Feature", "geometry": {"type": "Point", "coordinates": [2.30014, 41.5444]}, "properties": {"nom": "Vilanova del Vallès", "codi": "WE", "pluja": 0.0}}, {"type": "Feature", "geometry": {"type": "Point", "coordinates": [2.77578, 41.95425]}, "properties": {"nom": "Vilablareix", "codi": "WF", "pluja": 0.0}}, {"type": "Feature", "geometry": {"type": "Point", "coordinates": [0.64804, 41.80104]}, "properties": {"nom": "Algerri", "codi": "WG", "pluja": 0.0}}, {"type": "Feature", "geometry": {"type": "Point", "coordinates": [0.8129, 41.67342]}, "properties": {"nom": "Bellvís", "codi": "WH", "pluja": 0.0}}, {"type": "Feature", "geometry": {"type": "Point", "coordinates": [0.4809, 41.35741]}, "properties": {"nom": "Maials", "codi": "WI", "pluja": 0.4}}, {"type": "Feature", "geometry": {"type": "Point", "coordinates": [0.72182, 41.1223]}, "properties": {"nom": "el Masroig", "codi": "WJ", "pluja": 0.0}}, {"type": "Feature", "geometry": {"type": "Point", "coordinates": [0.57768, 41.81949]}, "properties": {"nom": "Alfarràs", "codi": "WK", "pluja": 0.2}}, {"type": "Feature", "geometry": {"type": "Point", "coordinates": [1.0882, 41.57236]}, "properties": {"nom": "Sant Martí de Riucorb", "codi": "WL", "pluja": 0.1}}, {"type": "Feature", "geometry": {"type": "Point", "coordinates": [1.8267, 42.10736]}, "properties": {"nom": "Santuari de Queralt", "codi": "WM", "pluja": 0.0}}, {"type": "Feature", "geometry": {"type": "Point", "coordinates": [1.83751, 41.59539]}, "properties": {"nom": "Montserrat - Sant Dimes", "codi": "WN", "pluja": 0.0}}, {"type": "Feature", "geometry": {"type": "Point", "coordinates": [1.46717, 41.27151]}, "properties": {"nom": "la Bisbal del Penedès", "codi": "WO", "pluja": 6.1}}, {"type": "Feature", "geometry": {"type": "Point", "coordinates": [1.69337, 41.48518]}, "properties": {"nom": "Canaletes", "codi": "WP", "pluja": 0.3}}, {"type": "Feature", "geometry": {"type": "Point", "coordinates": [0.72952, 42.0513]}, "properties": {"nom": "Montsec d'Ares (1.572 m)", "codi": "WQ", "pluja": 0.0}}, {"type": "Feature", "geometry": {"type": "Point", "coordinates": [0.79748, 41.2163]}, "properties": {"nom": "Torroja del Priorat", "codi": "WR", "pluja": 0.0}}, {"type": "Feature", "geometry": {"type": "Point", "coordinates": [2.41877, 41.84008]}, "properties": {"nom": "Viladrau", "codi": "WS", "pluja": 0.1}}, {"type": "Feature", "geometry": {"type": "Point", "coordinates": [2.75658, 41.64707]}, "properties": {"nom": "Malgrat de Mar", "codi": "WT", "pluja": 0.1}}, {"type": "Feature", "geometry": {"type": "Point", "coordinates": [2.24757, 41.45215]}, "properties": {"nom": "Badalona - Museu", "codi": "WU", "pluja": 0.0}}, {"type": "Feature", "geometry": {"type": "Point", "coordinates": [1.87485, 42.23414]}, "properties": {"nom": "Guardiola de Berguedà", "codi": "WV", "pluja": 0.1}}, {"type": "Feature", "geometry": {"type": "Point", "coordinates": [1.9368, 41.79423]}, "properties": {"nom": "Artés", "codi": "WW", "pluja": 0.1}}, {"type": "Feature", "geometry": {"type": "Point", "coordinates": [0.88175, 41.9178]}, "properties": {"nom": "Camarasa", "codi": "WX", "pluja": 0.0}}, {"type": "Feature", "geometry": {"type": "Point", "coordinates": [1.79429, 41.43386]}, "properties": {"nom": "Sant Sadurní d'Anoia - el Clot de les Comes", "codi": "WY", "pluja": 0.0}}, {"type": "Feature", "geometry": {"type": "Point", "coordinates": [1.63346, 41.20187]}, "properties": {"nom": "Cunit", "codi": "WZ", "pluja": 0.5}}, {"type": "Feature", "geometry": {"type": "Point", "coordinates": [0.81953, 41.15374]}, "properties": {"nom": "Falset", "codi": "X1", "pluja": 0.0}}, {"type": "Feature", "geometry": {"type": "Point", "coordinates": [2.18847, 41.38943]}, "properties": {"nom": "Barcelona - Zoo", "codi": "X2", "pluja": 0.0}}, {"type": "Feature", "geometry": {"type": "Point", "coordinates": [0.5358, 41.74281]}, "properties": {"nom": "Alguaire", "codi": "X3", "pluja": 0.3}}, {"type": "Feature", "geometry": {"type": "Point", "coordinates": [2.16775, 41.3839]}, "properties": {"nom": "Barcelona - el Raval", "codi": "X4", "pluja": 0.1}}, {"type": "Feature", "geometry": {"type": "Point", "coordinates": [0.31822, 40.79705]}, "properties": {"nom": "PN dels Ports", "codi": "X5", "pluja": 0.0}}, {"type": "Feature", "geometry": {"type": "Point", "coordinates": [1.02901, 41.92173]}, "properties": {"nom": "Baldomar", "codi": "X6", "pluja": 0.3}}, {"type": "Feature", "geometry": {"type": "Point", "coordinates": [0.55314, 41.51909]}, "properties": {"nom": "Torres de Segre", "codi": "X7", "pluja": 0.2}}, {"type": "Feature", "geometry": {"type": "Point", "coordinates": [2.1054, 41.37919]}, "properties": {"nom": "Barcelona - Zona Universitària", "codi": "X8", "pluja": 0.1}}, {"type": "Feature", "geometry": {"type": "Point", "coordinates": [2.16836, 41.61265]}, "properties": {"nom": "Caldes de Montbui", "codi": "X9", "pluja": 0.4}}, {"type": "Feature", "geometry": {"type": "Point", "coordinates": [1.4007, 41.60257]}, "properties": {"nom": "la Panadella", "codi": "XA", "pluja": 0.2}}, {"type": "Feature", "geometry": {"type": "Point", "coordinates": [1.53529, 41.4779]}, "properties": {"nom": "la Llacuna", "codi": "XB", "pluja": 1.2}}, {"type": "Feature", "geometry": {"type": "Point", "coordinates": [1.97546, 41.47892]}, "properties": {"nom": "Castellbisbal", "codi": "XC", "pluja": 0.2}}, {"type": "Feature", "geometry": {"type": "Point", "coordinates": [0.8857, 41.32]}, "properties": {"nom": "Ulldemolins", "codi": "XD", "pluja": 0.1}}, {"type": "Feature", "geometry": {"type": "Point", "coordinates": [1.201, 41.10393]}, "properties": {"nom": "Tarragona - Complex Educatiu", "codi": "XE", "pluja": 0.2}}, {"type": "Feature", "geometry": {"type": "Point", "coordinates": [2.06952, 41.56568]}, "properties": {"nom": "Sabadell - Parc Agrari", "codi": "XF", "pluja": 0.2}}, {"type": "Feature", "geometry": {"type": "Point", "coordinates": [2.22619, 41.56734]}, "properties": {"nom": "Parets del Vallès", "codi": "XG", "pluja": 0.1}}, {"type": "Feature", "geometry": {"type": "Point", "coordinates": [1.12993, 42.40533]}, "properties": {"nom": "Sort", "codi": "XH", "pluja": 0.0}}, {"type": "Feature", "geometry": {"type": "Point", "coordinates": [0.87182, 41.61817]}, "properties": {"nom": "Mollerussa", "codi": "XI", "pluja": 0.6}}, {"type": "Feature", "geometry": {"type": "Point", "coordinates": [2.80686, 41.98223]}, "properties": {"nom": "Girona", "codi": "XJ", "pluja": 0.1}}, {"type": "Feature", "geometry": {"type": "Point", "coordinates": [2.43774, 41.77362]}, "properties": {"nom": "Puig Sesolles (1.668 m)", "codi": "XK", "pluja": 0.1}}, {"type": "Feature", "geometry": {"type": "Point", "coordinates": [2.08022, 41.34045]}, "properties": {"nom": "el Prat de Llobregat", "codi": "XL", "pluja": 0.2}}, {"type": "Feature", "geometry": {"type": "Point", "coordinates": [0.73507, 41.59522]}, "properties": {"nom": "els Alamús", "codi": "XM", "pluja": 0.1}}, {"type": "Feature", "geometry": {"type": "Point", "coordinates": [0.42765, 41.46379]}, "properties": {"nom": "Seròs", "codi": "XN", "pluja": 0.1}}, {"type": "Feature", "geometry": {"type": "Point", "coordinates": [2.23987, 41.93497]}, "properties": {"nom": "Vic", "codi": "XO", "pluja": 0.0}}, {"type": "Feature", "geometry": {"type": "Point", "coordinates": [0.43006, 41.06564]}, "properties": {"nom": "Gandesa", "codi": "XP", "pluja": 0.1}}, {"type": "Feature", "geometry": {"type": "Point", "coordinates": [0.88814, 42.16252]}, "properties": {"nom": "Tremp", "codi": "XQ", "pluja": 0.0}}, {"type": "Feature", "geometry": {"type": "Point", "coordinates": [0.98161, 41.31481]}, "properties": {"nom": "Prades", "codi": "XR", "pluja": 0.4}}, {"type": "Feature", "geometry": {"type": "Point", "coordinates": [2.66446, 41.86489]}, "properties": {"nom": "Santa Coloma de Farners", "codi": "XS", "pluja": 0.0}}, {"type": "Feature", "geometry": {"type": "Point", "coordinates": [1.51165, 41.98766]}, "properties": {"nom": "Solsona", "codi": "XT", "pluja": 0.0}}, {"type": "Feature", "geometry": {"type": "Point", "coordinates": [1.72195, 41.28801]}, "properties": {"nom": "Canyelles", "codi": "XU", "pluja": 0.4}}, {"type": "Feature", "geometry": {"type": "Point", "coordinates": [2.07956, 41.48311]}, "properties": {"nom": "Sant Cugat del Vallès - CAR", "codi": "XV", "pluja": 0.1}}, {"type": "Feature", "geometry": {"type": "Point", "coordinates": [0.64855, 41.59822]}, "properties": {"nom": "Lleida - la Bordeta", "codi": "XW", "pluja": 0.0}}, {"type": "Feature", "geometry": {"type": "Point", "coordinates": [1.04476, 41.68835]}, "properties": {"nom": "Anglesola - Tornabous", "codi": "XX", "pluja": 0.0}}, {"type": "Feature", "geometry": {"type": "Point", "coordinates": [0.55027, 41.56509]}, "properties": {"nom": "Alcarràs", "codi": "XY", "pluja": 0.2}}, {"type": "Feature", "geometry": {"type": "Point", "coordinates": [3.06202, 42.18139]}, "properties": {"nom": "Torroella de Fluvià", "codi": "XZ", "pluja": 0.3}}, {"type": "Feature", "geometry": {"type": "Point", "coordinates": [1.42775, 42.17426]}, "properties": {"nom": "Alinyà", "codi": "Y4", "pluja": 0.0}}, {"type": "Feature", "geometry": {"type": "Point", "coordinates": [2.86295, 42.22793]}, "properties": {"nom": "Navata", "codi": "Y5", "pluja": 0.1}}, {"type": "Feature", "geometry": {"type": "Point", "coordinates": [0.74032, 41.04343]}, "properties": {"nom": "Tivissa", "codi": "Y6", "pluja": 0.1}}, {"type": "Feature", "geometry": {"type": "Point", "coordinates": [2.16537, 41.31725]}, "properties": {"nom": "Port de Barcelona - Bocana Sud", "codi": "Y7", "pluja": 0.0}}, {"type": "Feature", "geometry": {"type": "Point", "coordinates": [2.13091, 41.31723]}, "properties": {"nom": "Port de Barcelona - ZAL Prat (ca l'Arana)", "codi": "Y9", "pluja": 0.0}}, {"type": "Feature", "geometry": {"type": "Point", "coordinates": [1.93482, 42.44013]}, "properties": {"nom": "Puigcerdà", "codi": "YA", "pluja": 1.5}}, {"type": "Feature", "geometry": {"type": "Point", "coordinates": [2.47097, 42.18813]}, "properties": {"nom": "Olot", "codi": "YB", "pluja": 1.0}}, {"type": "Feature", "geometry": {"type": "Point", "coordinates": [0.96802, 42.24388]}, "properties": {"nom": "la Pobla de Segur", "codi": "YC", "pluja": 0.0}}, {"type": "Feature", "geometry": {"type": "Point", "coordinates": [0.8561, 41.51124]}, "properties": {"nom": "les Borges Blanques", "codi": "YD", "pluja": 0.0}}, {"type": "Feature", "geometry": {"type": "Point", "coordinates": [1.305756, 41.79409]}, "properties": {"nom": "Massoteres", "codi": "YE", "pluja": 0.1}}, {"type": "Feature", "geometry": {"type": "Point", "coordinates": [0.9345, 41.02066]}, "properties": {"nom": "Miami Platja", "codi": "YF", "pluja": 0.1}}, {"type": "Feature", "geometry": {"type": "Point", "coordinates": [1.24244, 42.51881]}, "properties": {"nom": "Tírvia", "codi": "YG", "pluja": 0.0}}, {"type": "Feature", "geometry": {"type": "Point", "coordinates": [1.42403, 41.71734]}, "properties": {"nom": "Pujalt", "codi": "YH", "pluja": 0.0}}, {"type": "Feature", "geometry": {"type": "Point", "coordinates": [0.64217, 41.58449]}, "properties": {"nom": "Lleida - la Femosa", "codi": "YJ", "pluja": 0.0}}, {"type": "Feature", "geometry": {"type": "Point", "coordinates": [1.99005, 41.55361]}, "properties": {"nom": "Terrassa", "codi": "YK", "pluja": 0.3}}, {"type": "Feature", "geometry": {"type": "Point", "coordinates": [0.96951, 41.1227]}, "properties": {"nom": "Riudecanyes", "codi": "YL", "pluja": 0.1}}, {"type": "Feature", "geometry": {"type": "Point", "coordinates": [2.29841, 41.60922]}, "properties": {"nom": "Granollers", "codi": "YM", "pluja": 0.2}}, {"type": "Feature", "geometry": {"type": "Point", "coordinates": [0.80198, 42.69737]}, "properties": {"nom": "Vielha - Elipòrt", "codi": "YN", "pluja": 1.2}}, {"type": "Feature", "geometry": {"type": "Point", "coordinates": [1.79324, 41.43531]}, "properties": {"nom": "Sant Sadurní d'Anoia", "codi": "YO", "pluja": 0.0}}, {"type": "Feature", "geometry": {"type": "Point", "coordinates": [3.16073, 41.90694]}, "properties": {"nom": "Palafrugell", "codi": "YP", "pluja": 0.2}}, {"type": "Feature", "geometry": {"type": "Point", "coordinates": [2.1372, 41.31928]}, "properties": {"nom": "Port de Barcelona - ZAL Prat", "codi": "YQ", "pluja": 0.1}}, {"type": "Feature", "geometry": {"type": "Point", "coordinates": [1.73148, 41.23575]}, "properties": {"nom": "Vilanova i la Geltrú", "codi": "YR", "pluja": 0.3}}, {"type": "Feature", "geometry": {"type": "Point", "coordinates": [2.956401, 42.32038]}, "properties": {"nom": "Cabanes", "codi": "YS", "pluja": 0.2}}, {"type": "Feature", "geometry": {"type": "Point", "coordinates": [1.07527, 42.75089]}, "properties": {"nom": "Bonabé (1.693 m)", "codi": "YT", "pluja": 0.3}}, {"type": "Feature", "geometry": {"type": "Point", "coordinates": [2.40472, 42.04265]}, "properties": {"nom": "Cantonigròs", "codi": "YU", "pluja": 4.0}}, {"type": "Feature", "geometry": {"type": "Point", "coordinates": [2.43322, 41.54517]}, "properties": {"nom": "Mataró", "codi": "YV", "pluja": 0.0}}, {"type": "Feature", "geometry": {"type": "Point", "coordinates": [0.31694, 41.08317]}, "properties": {"nom": "Batea", "codi": "YX", "pluja": 0.2}}, {"type": "Feature", "geometry": {"type": "Point", "coordinates": [2.04487, 41.28797]}, "properties": {"nom": "Viladecans - les Filipines", "codi": "YY", "pluja": 0.2}}, {"type": "Feature", "geometry": {"type": "Point", "coordinates": [0.98486, 42.64691]}, "properties": {"nom": "Bonaigua (2.266 m)", "codi": "Z1", "pluja": 0.0}}, {"type": "Feature", "geometry": {"type": "Point", "coordinates": [0.88405, 42.46602]}, "properties": {"nom": "Boí (2.535 m)", "codi": "Z2", "pluja": 0.0}}, {"type": "Feature", "geometry": {"type": "Point", "coordinates": [1.7785, 42.46605]}, "properties": {"nom": "Malniu (2.230 m)", "codi": "Z3", "pluja": 1.7}}, {"type": "Feature", "geometry": {"type": "Point", "coordinates": [2.2524, 42.42205]}, "properties": {"nom": "Ulldeter (2.364 m)", "codi": "Z4", "pluja": 0.0}}, {"type": "Feature", "geometry": {"type": "Point", "coordinates": [1.27201, 42.70029]}, "properties": {"nom": "Certascan (2.400 m)", "codi": "Z5", "pluja": 1.2}}, {"type": "Feature", "geometry": {"type": "Point", "coordinates": [0.73198, 42.77011]}, "properties": {"nom": "Sasseuva (2.228 m)", "codi": "Z6", "pluja": 0.0}}, {"type": "Feature", "geometry": {"type": "Point", "coordinates": [1.05476, 42.53412]}, "properties": {"nom": "Espot (2.519 m)", "codi": "Z7", "pluja": 0.0}}, {"type": "Feature", "geometry": {"type": "Point", "coordinates": [1.52407, 42.18254]}, "properties": {"nom": "el Port del Comte (2.316 m)", "codi": "Z8", "pluja": 0.0}}, {"type": "Feature", "geometry": {"type": "Point", "coordinates": [1.71498, 42.29265]}, "properties": {"nom": "Cadí Nord (2.143 m) - Prat d'Aguiló", "codi": "Z9", "pluja": 0.0}}, {"type": "Feature", "geometry": {"type": "Point", "coordinates": [1.36597, 42.51939]}, "properties": {"nom": "Salòria (2.451 m)", "codi": "ZB", "pluja": 0.3}}, {"type": "Feature", "geometry": {"type": "Point", "coordinates": [2.24593, 42.42102]}, "properties": {"nom": "Ulldeter (2.413 m)", "codi": "ZC", "pluja": 0.5}}, {"type": "Feature", "geometry": {"type": "Point", "coordinates": [1.89716, 42.32211]}, "properties": {"nom": "la Tosa d'Alp (2.478 m)", "codi": "ZD", "pluja": 0.0}}, {"type": "Feature", "geometry": {"type": "Point", "coordinates": [1.53207, 42.19088]}, "properties": {"nom": "el Port del Comte (2.290 m)", "codi": "ZE", "pluja": 0.0}}]}